City_ID,City,Country,Max Temp,Current Description,Lat,Lng,Hotel Name
0,Galesong,ID,77.02,scattered clouds,-5.3166,119.3661,Sapriadi Appy
1,Chuy,UY,65.73,moderate rain,-33.6971,-53.4616,Nuevo Hotel Plaza
2,Luwuk,ID,78.12,overcast clouds,-0.9516,122.7875,Hotel Santika Luwuk
3,Rikitea,PF,74.46,broken clouds,-23.1203,-134.9692,People ThankYou
4,Celestun,MX,77.34,overcast clouds,20.8667,-90.4,Posada Lilia
5,Victoria,HK,70.32,light rain,22.2855,114.1577,Mini Hotel Central
6,Hermanus,ZA,64.9,light rain,-34.4187,19.2345,Misty Waves Boutique Hotel
7,East London,ZA,67.14,clear sky,-33.0153,27.9116,Tu Casa
9,Mataura,NZ,50.83,overcast clouds,-46.1927,168.8643,Ellie's Villa
10,Port Blair,IN,80.92,broken clouds,11.6667,92.75,"Welcomhotel By ITC Hotels, Bay Island, Port Blair"
12,Torbay,CA,61.57,light rain,47.6666,-52.7314,Gallows Cove
13,Sipe Sipe,BO,79.16,clear sky,-17.45,-66.3833,Cabañas Oasis Marino
14,Esmeraldas,BR,81.46,clear sky,-19.7625,-44.3139,Bom Será - Marcinho e Fernanda
15,Ponta Do Sol,PT,75.7,few clouds,32.6667,-17.1,Hotel do Campo
16,Takoradi,GH,81.16,light rain,4.8845,-1.7554,Raybow International Hotel
17,Vaini,TO,69.96,broken clouds,-21.2,-175.2,Keleti Beach Resort
18,Georgetown,MY,81.9,moderate rain,5.4112,100.3354,Cititel Penang
19,Ariano Irpino,IT,66.45,overcast clouds,41.1489,15.0833,Hotel Incontro
20,Butaritari,KI,81.45,broken clouds,3.0707,172.7902,Isles Sunset Lodge
21,Mandera,KE,87.69,light rain,3.9366,41.867,Kornesh Hotel and Lodging
22,Benghazi,LY,79.72,clear sky,32.1167,20.0667,Tibesti Hotel
23,Cabo San Lucas,MX,73.15,clear sky,22.8909,-109.9124,Hotel Tesoro Los Cabos
24,Hobart,AU,53.02,light intensity shower rain,-42.8794,147.3294,Mantra on Collins Hobart
25,Praya,CV,86.54,few clouds,14.9215,-23.5087,LT Aparthotel
26,Harwich,GB,56.55,broken clouds,51.9419,1.2844,Premier Inn Harwich hotel
27,Bowen,AU,76.96,few clouds,-20.0167,148.2333,Castle Motor Lodge Motel
28,Marsa Matruh,EG,71.96,clear sky,31.3525,27.2453,Beau Site
29,Isangel,VU,74.97,broken clouds,-19.55,169.2667,Tanna Lodge
30,Valdez,EC,77.92,overcast clouds,1.2492,-78.9831,Casa Alquiler Doña Yenner y Don Wacho
31,Geraldton,AU,64.81,clear sky,-28.7667,114.6,Broadwater Mariner Resort
32,Biloela,AU,73.83,light rain,-24.4167,150.5,Biloela Silo Motor Inn
33,Laguna,US,56.01,clear sky,38.421,-121.4238,"Holiday Inn Express & Suites Elk Grove Central - Hwy 99, an IHG Hotel"
35,Tuatapere,NZ,51.76,light rain,-46.1333,167.6833,Ron and Tony's Bed & Breakfast
36,Port Alfred,ZA,65.26,scattered clouds,-33.5906,26.891,The Halyards Hotel
37,Saint George,US,63.36,clear sky,37.1041,-113.5841,Best Western Plus Abbey Inn
38,Coquimbo,CL,60.39,clear sky,-29.9533,-71.3436,Punto de encuentro
39,Port Elizabeth,ZA,68.09,clear sky,-33.918,25.5701,39 On Nile Guest House
40,Lewistown,US,56.93,light rain,40.5992,-77.5714,Quality Inn & Suites
41,Bure,ET,61.41,broken clouds,10.7,37.0667,Holiday
42,Asyut,EG,81.63,scattered clouds,27.181,31.1837,Florence Hotel Assiut
43,Avarua,CK,68.05,light rain,-21.2078,-159.775,Paradise Inn
44,Lagoa,PT,66.96,clear sky,39.05,-27.9833,Casa Das Faias
45,Anzio,IT,70.68,overcast clouds,41.4853,12.6179,Beauty Hotel & SPA
46,Ponta Delgada,PT,72.32,few clouds,37.7333,-25.6667,Vila Nova Hotel
47,Sokoni,TZ,78.8,scattered clouds,-6.4333,39.55,Ujamaa Beach Resort
48,Popondetta,PG,72.77,scattered clouds,-8.7537,148.2534,Timos Transit House
49,Atuona,PF,77.79,few clouds,-9.8,-139.0333,Villa Enata
50,Tsabong,BW,74.93,clear sky,-26.0217,22.401,Springbok Motel
51,Bethel,US,55.94,overcast clouds,41.3712,-73.414,Courtyard by Marriott Danbury
52,Cape Town,ZA,68.09,broken clouds,-33.9258,18.4232,Southern Sun Waterfront Cape Town
53,Fortuna,US,53.98,light rain,40.5982,-124.1573,Super 8 by Wyndham Fortuna
54,Lebu,CL,53.19,overcast clouds,-37.6167,-73.65,Hostal Las Lilas
55,Marsh Harbour,BS,76.87,overcast clouds,26.5412,-77.0636,Abaco Beach Resort
56,Abong Mbang,CM,78.98,light rain,3.9833,13.1833,Auberge Angle Sur
57,Constitucion,CL,57.7,clear sky,-35.3333,-72.4167,Hotel Boutique Las Azucenas
58,Kapaa,US,75.52,light rain,22.0752,-159.319,Sheraton Kauai Coconut Beach Resort
59,Cidreira,BR,75.13,broken clouds,-30.1811,-50.2056,Hotel Castelo
60,Kruisfontein,ZA,65.88,clear sky,-34.0033,24.7314,Oyster Bay House Rental
61,Embu,BR,88.75,clear sky,-23.6489,-46.8522,POUSADA DU VALLE - EMBU DAS ARTES - TABOÃO DA SERRA - ITAPECERICA DA SERRA - COTIA
62,Ginda,IN,51.85,clear sky,30.6945,78.4932,Bal uma sankar hotel and restaurant
63,Airai,TL,62.89,overcast clouds,-8.9266,125.4092,Juvinal Martin
64,Puerto Ayora,EC,69.76,overcast clouds,-0.7393,-90.3518,Finch Bay Galapagos Hotel
65,Mahebourg,MU,76.24,few clouds,-20.4081,57.7,Shandrani Beachcomber Resort & Spa
66,Munster,DE,57.18,few clouds,51.9624,7.6257,H4 Hotel Münster
67,Bredasdorp,ZA,57.27,light rain,-34.5322,20.0403,Bredasdorp Country Manor
68,Buin,CL,62.92,few clouds,-33.7333,-70.75,Paihuen
69,Moron,AR,66.99,overcast clouds,-34.6534,-58.6198,Hotel Morón
70,Kingman,US,64.9,clear sky,35.1894,-114.053,Rodeway Inn Kingman Route 66
71,Bluff,NZ,52.86,overcast clouds,-46.6,168.3333,Bluff Homestead - Guesthouse & Campervan Park
72,Katsuura,JP,57.31,clear sky,35.1333,140.3,Katsuura Hotel Mikazuki
73,Castro,BR,75.54,overcast clouds,-24.7911,-50.0119,CHACARA BAILLY
74,Faya,SA,72.12,clear sky,18.3851,42.4509,املاك خالد الشعشوع
75,Damietta,EG,72.16,clear sky,31.4165,31.8133,SULIMAN INN
76,Wembley,AU,61.68,clear sky,-31.9333,115.8,Quest on Rheola
77,Ribeira Grande,PT,72.0,few clouds,38.5167,-28.7,Quinta da Meia Eira
78,Arraial Do Cabo,BR,76.86,clear sky,-22.9661,-42.0278,Pousada Porto Praia
79,Ishigaki,JP,77.02,overcast clouds,24.3448,124.1572,Hotel Peace Land Ishigakijima
80,Lakes Entrance,AU,52.57,broken clouds,-37.8811,147.981,The Esplanade Resort & Spa
81,Busselton,AU,56.08,clear sky,-33.65,115.3333,Observatory Guest House
82,Hilo,US,72.81,mist,19.7297,-155.09,Hilo Hawaiian Hotel
83,Carroll,US,60.66,broken clouds,39.5501,-77.0164,Best Western Westminster Hotel
84,New Norfolk,AU,52.66,overcast clouds,-42.7826,147.0587,The Shingles Riverside Cottages
85,Kavieng,PG,82.71,light rain,-2.5744,150.7967,Nusa Island Retreat
86,Fukue,JP,65.46,clear sky,32.6881,128.8419,Goto Guesthouse Utojuku & SA Car Rental
87,Wajima,JP,57.52,overcast clouds,37.4,136.9,Wajiima Onsen Yashio
88,Yueyang,CN,56.89,light rain,29.3333,113.0919,Delong Fortune Hotel
89,Uvira,CD,81.91,broken clouds,-3.4067,29.1458,Hotel Suzana
90,Luganville,VU,77.63,broken clouds,-15.5333,167.1667,The Espiritu Hotel
91,Gaogou,CN,56.5,light rain,34.0175,119.1886,GreenTree Inn JiangSu Huaian Gaogou Town First Street Shell Hotel
92,Garden City,US,50.99,overcast clouds,42.3256,-83.331,Quality Inn & Suites Banquet Center
94,Lompoc,US,58.37,mist,34.6391,-120.4579,"Holiday Inn Express Lompoc, an IHG Hotel"
95,Ulladulla,AU,65.77,overcast clouds,-35.35,150.4667,Sandpiper Motel
96,Ranong,TH,77.85,overcast clouds,9.9658,98.6348,Tinidee Hotel@Ranong
97,Porto Santo,PT,74.3,few clouds,33.072,-16.3415,Hotel Porto Santo & Spa
98,Soyo,AO,81.28,broken clouds,-6.1349,12.3689,Hotel Mpampa
99,Saint-Philippe,RE,78.39,broken clouds,-21.3585,55.7679,"Chambres d'hôte ""La Trinité"""
100,Namibe,AO,73.62,scattered clouds,-15.1961,12.1522,Hotel Chik Chik Namibe
101,Touros,BR,88.7,broken clouds,-5.1989,-35.4608,INN NEW HORIZON
102,Nazca,PE,76.01,clear sky,-14.8333,-74.95,Casa Andina Standard Nasca
103,Puerto Carreno,CO,87.96,broken clouds,6.189,-67.4859,Casa Hotel Victoria
104,Casambalangan,PH,79.32,broken clouds,18.3765,122.1274,Villa Saturnina
106,Margate,GB,56.03,broken clouds,51.3813,1.3862,Premier Inn Margate hotel
107,Esperance,AU,53.47,clear sky,-33.8667,121.9,Hospitality Esperance
108,Mar Del Plata,AR,64.42,broken clouds,-38.0023,-57.5575,Gran Hotel Mar del Plata
109,Upata,VE,81.19,overcast clouds,8.0086,-62.3989,Posada Villa Nela
110,Iracoubo,GF,83.16,heavy intensity rain,5.4802,-53.2011,Le Gîte d’Iracoubo
111,Sur,OM,82.65,clear sky,22.5667,59.5289,Sur Plaza Hotel
112,Qui Nhon,VN,75.29,moderate rain,13.7667,109.2333,Hoang Yen Canary Hotel
113,Port Macquarie,AU,65.89,few clouds,-31.4333,152.9167,Rydges Port Macquarie
114,Akyab,MM,79.11,overcast clouds,20.15,92.9,Hotel Memory
115,Sao Jose Da Coroa Grande,BR,84.33,overcast clouds,-8.8978,-35.1478,Crôa Mares Hotel
116,Ugoofaaru,MV,81.27,few clouds,5.6667,73.0,Ungoofaaru Inn
117,Guerande,FR,58.75,clear sky,47.3291,-2.4283,Best Western Hôtel de la Cité
118,Bani,DO,86.76,few clouds,18.2833,-70.3333,Hospedaje Henriquez
119,Kimbe,PG,74.68,clear sky,-5.5502,150.1429,Kimbe Bay Hotel
120,Acarau,BR,89.73,broken clouds,-2.8856,-40.12,castelo pizzaria
121,Ahipara,NZ,60.87,light rain,-35.1667,173.1667,Ahipara Holiday Park
122,Bud,US,52.83,scattered clouds,39.447,-86.1758,Ted McQuinn Trust
123,Felipe Carrillo Puerto,MX,83.88,overcast clouds,19.5833,-88.05,Hotel La Ceiba
126,Bathsheba,BB,88.41,scattered clouds,13.2167,-59.5167,Atlantis Hotel
127,Sao Filipe,CV,80.91,clear sky,14.8961,-24.4956,Hotel Xaguate
128,Blackwater,AU,76.3,overcast clouds,-23.5833,148.8833,Blackwater Motor Inn
129,Bandarbeyla,SO,78.82,few clouds,9.4942,50.8122,JABIR HOTEL
130,Basirpur,PK,67.86,scattered clouds,30.5832,73.829,Lugoo goods
131,Palmer,US,54.72,broken clouds,42.1584,-72.3287,Wedgewood Motel
132,Bengkulu,ID,77.02,broken clouds,-3.8004,102.2655,Grage Hotel Bengkulu
133,Saint Albans,GB,56.39,overcast clouds,51.75,-0.3333,Quality Hotel St. Albans
134,Kalangala,UG,75.11,broken clouds,-0.3089,32.225,Ssese Habitat Resort
135,Faanui,PF,76.96,light rain,-16.4833,-151.75,Bora-Bora Pearl Beach Resort & Spa
136,Hobyo,SO,80.64,few clouds,5.3505,48.5268,Halane Hotel and Restaurent
137,Kantunilkin,MX,85.95,overcast clouds,21.0917,-87.45,Posada Paraiso
138,Epe,NG,76.89,light rain,6.5841,3.9834,MAGVILLE HOTEL
139,Te Anau,NZ,50.43,light rain,-45.4167,167.7167,Kingsgate Hotel Te Anau
140,Brejo,BR,96.46,overcast clouds,-3.6844,-42.7503,Hotel Santa Luzia
141,Beberibe,BR,91.17,broken clouds,-4.1797,-38.1306,Villa Arte Pousada Morro Branco
143,Nouakchott,MR,98.53,clear sky,18.0858,-15.9785,HOTEL IMAN فندق إيمان
144,Bambous Virieux,MU,76.21,few clouds,-20.3428,57.7575,Casa Tia Villa
145,Rantepao,ID,65.07,overcast clouds,-2.9701,119.8978,Hotel Luta Resort
146,Talara,PE,69.49,overcast clouds,-4.5772,-81.2719,Hostal Oro Negro
147,Ozuluama,MX,74.66,overcast clouds,21.6667,-97.85,Hotel Posada De La Roma
148,San Rafael,AR,65.7,few clouds,-34.6177,-68.3301,Hotel San Rafael
150,Sinnamary,GF,82.42,overcast clouds,5.3833,-52.95,ALETHEIA Appartement Sinnamary
152,Benguela,AO,79.18,broken clouds,-12.5763,13.4055,Hotel Praia Morena
153,Telemaco Borba,BR,78.03,overcast clouds,-24.3239,-50.6156,Vespasiano Hotel Telêmaco Borba
154,Gushikawa,JP,72.63,overcast clouds,26.3544,127.8686,Kirari Guest House
155,Ajdabiya,LY,85.14,broken clouds,30.7554,20.2263,Almadina Hotel
156,Tharad,IN,80.13,clear sky,24.3961,71.6267,Shree Nandan Couriyar Service
157,Riyadh,SA,87.94,clear sky,24.6877,46.7219,"InterContinental Riyadh, an IHG Hotel"
158,Hithadhoo,MV,82.11,overcast clouds,-0.6,73.0833,Scoop Guest House
159,Puerto Escondido,MX,74.23,broken clouds,15.85,-97.0667,Aldea del Bazar Hotel and Spa
160,Ubatuba,BR,78.96,clear sky,-23.4339,-45.0711,Hotel Coquille
161,Tual,ID,83.93,broken clouds,-5.6667,132.75,Grand Vilia Hotel
162,Cockburn Town,TC,83.34,scattered clouds,21.4612,-71.1419,Osprey Beach Hotel
163,Renqiu,CN,51.13,clear sky,38.6989,116.0936,City Garden Renqiu Meishicheng Store
164,Sola,VU,81.0,few clouds,-13.8833,167.55,Leumerus Bungalows
165,Sao Joao Da Barra,BR,73.78,scattered clouds,-21.6403,-41.0511,Pousada Porto De Canoas
166,Dzilam Gonzalez,MX,76.03,overcast clouds,21.2833,-88.9333,posadas
167,Salalah,OM,78.89,clear sky,17.0151,54.0924,"HAMDAN PLAZA HOTEL SALALAH, an HTG Hotel"
168,Rabo De Peixe,PT,71.11,few clouds,37.8,-25.5833,Quinta das Giestas
169,Saldanha,ZA,61.14,few clouds,-33.0117,17.9442,Blue Bay Lodge
170,Nigran,ES,68.4,clear sky,42.1415,-8.8066,Parador de Baiona
172,Flinders,AU,67.17,light rain,-34.5833,150.8552,Shellharbour Resort & Conference Centre
173,Atbasar,KZ,51.28,scattered clouds,51.8,68.3333,Гостиничный Комплекс Saad
175,Klaksvik,FO,50.92,overcast clouds,62.2266,-6.589,Airbnb rooms
177,Coihueco,CL,56.14,broken clouds,-36.6167,-71.8333,Frutillares Coihueco
178,San Patricio,US,78.64,overcast clouds,28.017,-97.5169,"Motel 6 Sinton, TX"
179,Lasa,IT,61.54,clear sky,46.6166,10.7002,Pension Feldgärtenhof
180,Razvad,RO,65.26,overcast clouds,44.9333,25.5333,Guesthouse Vila Melisa
181,Carnarvon,AU,69.87,clear sky,-24.8667,113.6333,Hospitality Carnarvon
182,Shakawe,BW,95.32,broken clouds,-18.3667,21.85,Ditlhapi Guest House
184,Zhanaozen,KZ,57.56,clear sky,43.3,52.8,K.korabay 28A
185,Praia,CV,86.54,few clouds,14.9215,-23.5087,LT Aparthotel
186,Santiago,CL,60.85,clear sky,-33.4569,-70.6483,Che Lagarto Hostel Santiago
187,Isahaya,JP,54.45,clear sky,32.8411,130.0431,Isahaya Green Hotel
188,Belo Oriente,BR,79.32,overcast clouds,-19.22,-42.4836,Hotel Dona Fia
189,Calabozo,VE,89.6,clear sky,8.9242,-67.4293,Hotel Giardini
190,Axim,GH,81.18,light rain,4.8699,-2.2405,Axim Beach Resort And Spa
191,Xiantao,CN,57.07,scattered clouds,30.3833,113.4,City Convenient Chain Hotel
192,Terrell,US,75.78,overcast clouds,32.736,-96.2753,"Holiday Inn Express & Suites Terrell, an IHG Hotel"
193,Gat,IL,75.88,clear sky,31.61,34.7642,OlusHome
194,Saint-Joseph,RE,77.38,broken clouds,-21.3667,55.6167,"""Plantation Bed and Breakfast"
195,Oistins,BB,83.57,overcast clouds,13.0667,-59.5333,Butterfly Beach Hotel
196,Koraput,IN,67.62,few clouds,18.8167,82.7167,Raj Residency
197,Siirt,TR,63.03,clear sky,37.9326,41.9403,Barden Otel
198,Arnstadt,DE,51.89,broken clouds,50.8333,10.95,Hotelpark Stadtbrauerei Arnstadt
199,Mount Isa,AU,74.97,light rain,-20.7333,139.5,ibis Styles Mt Isa Verona
200,Forestville,US,62.46,broken clouds,38.8451,-76.875,Quality Inn Near Joint Base Andrews-Washington Area
201,Dingle,PH,74.98,light rain,10.9995,122.6711,SEGAYA PROPERTY
203,Kavaratti,IN,82.17,overcast clouds,10.5669,72.642,Hotels in Lakshadweep Islands
204,Jiwani,PK,79.5,clear sky,25.05,61.7417,Al Mumtaz Transport Jiwani
205,Presidencia Roque Saenz Pena,AR,76.8,scattered clouds,-26.7852,-60.4388,Hotel Aconcagua
206,Ziro,IN,51.13,scattered clouds,27.6333,93.8333,Ka-ngam homestay
207,Caravelas,BR,80.28,broken clouds,-17.7125,-39.2481,Pousada dos Navegantes
208,Tabou,CI,80.29,light rain,4.423,-7.3528,hotêl doufoulougou
209,Natal,BR,88.45,scattered clouds,-5.795,-35.2094,Villa Park Hotel | Natal
210,Meadow Lake,US,64.69,few clouds,34.8014,-106.5436,TumbleWeed RV Park
211,Raymondville,US,79.95,scattered clouds,26.4815,-97.7831,La Quinta Inn & Suites by Wyndham Raymondville
212,Hokitika,NZ,54.52,overcast clouds,-42.7167,170.9667,Beachfront Hotel Hokitika
213,Tondi,IN,82.99,clear sky,9.7333,79.0167,Star Lodge
214,Vila Velha,BR,80.55,scattered clouds,-20.3297,-40.2925,Quality Suites Vila Velha
215,Sao Mateus Do Sul,BR,72.43,moderate rain,-25.8742,-50.3828,Hotel Dom Leopoldo
216,Redmond,US,52.38,overcast clouds,47.674,-122.1215,Seattle Marriott Redmond
217,Krynychky,UA,55.54,overcast clouds,48.3755,34.467,Kazanok
218,Jega,NG,92.57,overcast clouds,12.2175,4.3792,ALH. Nasiru Ibrahim
219,Sao Joao Do Piaui,BR,91.98,moderate rain,-8.3581,-42.2467,Nayra Palace Hotel
220,Oktyabrskoye,RU,53.74,clear sky,43.0645,44.7417,Prolesok Mini-hotel
221,Kununurra,AU,82.38,clear sky,-15.7667,128.7333,Hotel Kununurra
222,Rawah,IQ,79.05,broken clouds,34.4816,41.9093,المملكة الراوية الهاشمية
223,Lata,PT,75.49,overcast clouds,40.1629,-8.3327,Casa Maquia
224,Macusani,PE,52.0,few clouds,-14.0833,-70.4333,"Hospedaje ""Arca de Noe"""
225,Cayenne,GF,86.09,broken clouds,4.9333,-52.3333,Hôtel Le Dronmi
226,Ambilobe,MG,80.49,broken clouds,-13.2,49.05,Hôtel & Restaurant DIANA Ambilobe
227,San Cristobal,VE,77.18,broken clouds,7.7669,-72.225,Posada Villaven C.A.
229,Makakilo City,US,75.52,clear sky,21.3469,-158.0858,Marriott's Ko Olina Beach Club
230,Puerto Baquerizo Moreno,EC,74.39,broken clouds,-0.9,-89.6,Hotel los Algarrobos
231,Ejea De Los Caballeros,ES,65.07,clear sky,42.1263,-1.1372,Hotel Ciudad De Ejea
232,Dixon,US,56.43,clear sky,38.4455,-121.8233,Best Western Plus Dixon Davis
233,Hamilton,US,55.65,scattered clouds,39.1834,-84.5333,Six Acres Bed & Breakfast
234,Puerto Leguizamo,CO,79.16,overcast clouds,-0.1934,-74.7819,la casona de juancho
235,Charters Towers,AU,71.69,few clouds,-20.1,146.2667,Cattleman's Rest Motor Inn
236,Tay Ninh,VN,76.44,very heavy rain,11.3,106.1,Thanh Tuyền Hotel
237,Pangkalanbuun,ID,75.51,broken clouds,-2.6833,111.6167,Grand Kecubung Hotel
238,Weener,DE,53.96,overcast clouds,53.1667,7.35,Ferienhof Renold Müller
239,Broken Hill,AU,54.86,clear sky,-31.95,141.4333,Royal Exchange Hotel
240,Bida,NG,83.88,broken clouds,9.0833,6.0167,Royal Suite
241,San Quintin,MX,62.38,scattered clouds,30.4833,-115.95,Don Eddie's Sport Fishing Center
242,Safaga,EG,80.22,clear sky,26.7292,33.9365,Lamar Resort Abu Soma
243,Port Moresby,PG,75.74,broken clouds,-9.4431,147.1797,Lamana Hotel (Port Moresby)
246,Soledar,UA,51.98,light rain,48.6794,38.089,Soledar
247,Boz,FR,59.85,clear sky,46.4071,4.9109,Le Jardin De La Reyssouze
248,Labuhan,ID,81.16,overcast clouds,-6.8844,112.2051,PT PPI Lamongan Tambak C
249,Bondoukou,CI,83.46,light rain,8.0333,-2.8,Prestige Hotel
251,Cururupu,BR,90.55,overcast clouds,-1.8283,-44.8683,POUSADA TRAVÉS'CIA
252,Diffa,NE,98.13,few clouds,13.3154,12.6113,ProDAF/Diffa
253,Quatre Cocos,MU,76.08,scattered clouds,-20.2078,57.7625,Sunrise Attitude Hotel
254,Alyangula,AU,81.23,few clouds,-13.8483,136.4192,Groote Eylandt Lodge
255,Catamarca,AR,81.05,clear sky,-28.4696,-65.7852,Amerian Catamarca Park Hotel
257,Pisco,PE,64.02,clear sky,-13.7,-76.2167,Hotel San Isidro Oficial
258,Canavieiras,BR,77.36,light rain,-15.675,-38.9472,Bahiadomizil
259,Fare,PF,75.16,light rain,-16.7,-151.0167,Maitai Lapita Village Huahine
260,Shimoda,JP,53.1,broken clouds,34.6667,138.95,Shimoda Tokyu Hotel
261,Hendek,TR,62.92,clear sky,40.7994,30.7481,Hendek Ogretmenevi
263,Pyapon,MM,76.53,broken clouds,16.2833,95.6833,Aung Naing Thu Motel
264,Necochea,AR,68.04,broken clouds,-38.5473,-58.7368,dyd -mar Hotel
265,Princeton,US,86.02,overcast clouds,25.5384,-80.4089,American Best Inn
266,Wajir,KE,91.72,clear sky,1.7471,40.0573,Al-bustan Hotel And Restaurant.
267,Bani Walid,LY,89.91,overcast clouds,31.7566,13.9942,منزل الصابر أبوفانة
268,Kirakira,SB,78.64,few clouds,-10.4544,161.9205,SanBiz Lodge
269,Hammond,US,52.5,clear sky,41.5834,-87.5,"Residence Inn by Marriott Chicago Southeast/Hammond, IN"
270,Levelland,US,67.19,broken clouds,33.5873,-102.378,"Holiday Inn Express & Suites Levelland, an IHG Hotel"
271,Middelburg,ZA,86.76,clear sky,-25.7751,29.4648,Oregon Place Guest House
272,Sterling,US,62.28,overcast clouds,39.0062,-77.4286,Hampton Inn & Suites Washington-Dulles International Airport
273,Boca Raton,US,85.05,mist,26.3587,-80.0831,Ocean Lodge Florida
275,Wellington,NZ,56.66,overcast clouds,-41.2866,174.7756,CityLife Wellington
276,Hurricane,US,60.6,overcast clouds,37.1753,-113.2899,Super 8 by Wyndham Hurricane Zion National Park
277,Abu Dhabi,AE,87.91,clear sky,24.4667,54.3667,Ramee Garden Hotel Apartments
278,Hambantota,LK,80.94,few clouds,6.1241,81.1185,Bungalow 63
279,Pamplona,ES,66.11,clear sky,42.8169,-1.6432,Sercotel Hotel Leyre
280,Boma,GH,81.93,moderate rain,7.0805,-2.1697,Obaatanpa Hotel
281,Southbridge,US,57.31,overcast clouds,42.0751,-72.0334,Southbridge Hotel & Conference Center
282,George Town,MY,81.9,moderate rain,5.4112,100.3354,Cititel Penang
283,Tabas,IR,64.42,clear sky,33.5959,56.9244,شرکت معماری مهراز شایگان آراد
284,Radolfzell,DE,58.28,clear sky,47.7333,8.9667,Hotel Zur Schmiede
285,Lorengau,PG,80.89,overcast clouds,-2.0226,147.2712,Lorengau Harbourside Hotel
287,Batemans Bay,AU,65.98,overcast clouds,-35.7167,150.1833,Batemans Bay Marina Resort
288,Araras,BR,90.63,clear sky,-22.3569,-47.3842,HOTEL MARQUES
289,Kadoma,JP,58.98,clear sky,34.7333,135.5833,Hotel Agora Osaka Moriguchi
290,Pergamino,AR,67.17,overcast clouds,-33.89,-60.5736,Hotel Fachinat
291,Nouadhibou,MR,69.6,clear sky,20.931,-17.0347,El Medina
292,Phan Thiet,VN,77.54,overcast clouds,10.9333,108.1,Hotel Saigon-PT
293,Sibolga,ID,78.46,overcast clouds,1.7427,98.7792,Hotel Syariah CN Darussalam
294,Bull Savanna,JM,82.56,broken clouds,17.8868,-77.5902,Big Red's
295,Alghero,IT,73.49,clear sky,40.5589,8.3181,Villa Las Tronas Hotel & Spa
297,Beni Suef,EG,80.46,clear sky,29.0731,31.0979,Jewel Inn Beni Suef
298,Camana,PE,66.0,broken clouds,-16.6228,-72.7111,Hostal Morales
299,Kollam,IN,80.47,overcast clouds,8.8833,76.6,Nani Hotels and Resorts
300,Guerrero Negro,MX,66.69,clear sky,27.9769,-114.0611,"Casa Laguna, Bed & Breakfast"
301,Saint-Francois,FR,58.68,broken clouds,46.4154,3.9054,Manoir Du Bonheur
302,Itarema,BR,89.96,broken clouds,-2.9248,-39.9167,"Sea Lounge! Bar, Club & Restaurant"
303,Gambela,ET,83.77,scattered clouds,8.25,34.5833,Solomon Debebe Hotel
304,Dunedin,NZ,53.8,light rain,-45.8742,170.5036,Scenic Hotel Southern Cross
305,Wadi Maliz,TN,76.37,overcast clouds,36.4681,8.5495,HOPITAL
306,Wanning,CN,70.66,overcast clouds,18.8003,110.3967,Paradise Hotel
307,Jaque,PA,81.72,light rain,7.5175,-78.1703,Imbu Bua Lodge
308,Artyom,AZ,59.14,clear sky,40.4723,50.333,Merdan Respect
310,Dromolaxia,CY,78.46,few clouds,34.8761,33.586,Sea N Lake View Hotel Apartments
311,Llandrindod Wells,GB,53.29,overcast clouds,52.2416,-3.3787,Metropole Hotel and Spa
312,Montalvo,EC,80.02,overcast clouds,-1.8,-79.3333,Motel Los Laureles
313,Coihaique,CL,50.61,few clouds,-45.5752,-72.0662,Diego De Almagro Coyhaique
314,Boa Vista,BR,87.78,broken clouds,2.8197,-60.6733,Aipana Plaza Hotel
315,Roura,GF,85.96,broken clouds,4.7263,-52.3274,Amazonie Découverte SARL
316,Independence,US,53.71,broken clouds,39.0911,-94.4155,Higher Ground Hotel
317,Mozarlandia,BR,95.45,overcast clouds,-14.7447,-50.5706,Hotel Santa Mônica
319,Ambon,ID,81.32,overcast clouds,-3.6954,128.1814,Swiss-Belhotel Ambon
320,Naze,JP,67.46,broken clouds,28.3667,129.4833,オーベルジュ・アガルイ
322,Rock Sound,BS,80.15,overcast clouds,24.9,-76.2,Rock Sound Club
323,Montecristi,EC,73.22,overcast clouds,-1.05,-80.6667,Balcones del Cerro Hotel - Cabañas
324,Dicabisagan,PH,77.76,overcast clouds,17.0818,122.4157,Nancy Montanes Bernardo
325,Sechura,PE,70.16,overcast clouds,-5.5569,-80.8222,Hospedaje Costa Bella
326,Sungaipenuh,ID,66.11,broken clouds,-2.0833,101.3833,penginapan citra alam
327,San Policarpo,PH,81.07,overcast clouds,12.1791,125.5072,Agapita M. Nicart
328,Townsville,AU,77.88,broken clouds,-19.25,146.8,Rydges Southbank Townsville
329,Padang,ID,77.05,broken clouds,-0.9492,100.3543,Mercure Padang
330,Zaplavnoye,RU,53.46,light rain,48.7048,45.0229,"Emerald, recreation"
331,Dhidhdhoo,MV,81.73,moderate rain,6.8833,73.1,Dhidhoo beach
332,Kahului,US,74.84,broken clouds,20.8947,-156.47,Maui Seaside Hotel
333,Perth,AU,61.66,clear sky,-31.9333,115.8333,Beatty Lodge
334,Chalus,IR,62.06,clear sky,36.655,51.4204,نظام مهندسي ساختمان چالوس
335,Grandola,PT,69.35,broken clouds,38.1772,-8.5668,Hotel Jorge Grand
336,Vao,NC,72.1,overcast clouds,-22.6667,167.4833,Hotel Kou-Bugny
337,Yarada,IN,84.52,mist,17.65,83.2667,Vishranti
338,Hit,IQ,78.12,scattered clouds,33.6416,42.8251,صالون زيرو
341,Cervo,ES,68.2,overcast clouds,43.6702,-7.4101,Hotel Spa Galatea
342,Ahuimanu,US,76.71,few clouds,21.4447,-157.8378,Paradise Bay Resort
343,Soe,ID,68.99,overcast clouds,-9.8607,124.284,Dena Hotel
344,Tanete,ID,76.75,broken clouds,-3.9443,119.7848,Wisma Tri Multi
346,Kudahuvadhoo,MV,82.72,few clouds,2.6708,72.8944,Niyama Private Islands Maldives
347,Hirara,JP,76.05,broken clouds,24.8,125.2833,Hotel Atoll Emerald Miyakojima
348,Santa Cruz,BO,89.65,smoke,-17.8,-63.1667,Aviador Hotel Boutique
349,San Ramon,US,56.21,broken clouds,37.7799,-121.978,San Ramon Marriott
350,Buraydah,SA,86.92,clear sky,26.326,43.975,فندق راحة السلام
351,Kloulklubed,PW,77.5,overcast clouds,7.0419,134.2556,Storyboard Beach Resort
352,Rahuri,IN,76.55,scattered clouds,19.3833,74.65,Vitthal Kamats
353,Davila,PH,80.28,overcast clouds,18.4726,120.5763,Blue Ridge Beach Resort
354,Bosaso,SO,81.55,clear sky,11.2842,49.1816,Red Sea Hotel
355,Oranjestad,AW,89.55,few clouds,12.524,-70.027,Divi Village Golf & Beach Resort
356,Antofagasta,CL,61.88,scattered clouds,-23.65,-70.4,"Holiday Inn Express Antofagasta, an IHG Hotel"
357,Guangyuan,CN,55.83,overcast clouds,32.442,105.823,Guangyuan Poetry Hotel
358,Champerico,GT,88.75,broken clouds,14.3,-91.9167,"Hotel y restaurante ""El Diamante"""
359,Nagydobos,HU,53.64,overcast clouds,48.0576,22.3042,Szamos-Party Vendégház
360,Saint Simons,US,77.04,clear sky,31.1352,-81.3901,"Holiday Inn Express Saint Simons Island, an IHG Hotel"
361,Ballina,AU,70.79,clear sky,-28.8667,153.5667,Ramada Hotel & Suites by Wyndham Ballina Byron
362,Tapah,MY,75.27,overcast clouds,4.2004,101.2598,Shahrini Homestay
363,Pombia,IT,65.32,few clouds,45.653,8.6336,Albergo Fontana
364,Atambua,ID,77.11,overcast clouds,-9.1061,124.8925,Pastori 1 Jemaat Polycarpus
365,Zhicheng,CN,54.93,light rain,30.2956,111.5047,Wangjiang Building
366,Anloga,GH,80.47,moderate rain,5.7947,0.8973,Pin Drop Hotel
367,Horn Lake,US,66.18,few clouds,34.9554,-90.0348,"Hilton Garden Inn Memphis/Southaven, MS"
369,Tura,IN,67.28,clear sky,25.5198,90.2201,Hotel RIKMAN Continental
370,Rocha,UY,65.14,moderate rain,-34.4833,-54.3333,Beleza Pura B&B
371,Villa Bruzual,VE,85.69,scattered clouds,9.3328,-69.1208,hotel italia
372,Half Moon Bay,US,57.7,mist,37.4636,-122.4286,"The Ritz-Carlton, Half Moon Bay"
373,Les Cayes,HT,85.89,scattered clouds,18.2,-73.75,Villa Orphee
374,Mala,PE,68.0,broken clouds,-12.6581,-76.6308,Hotel Granda
375,Saint-Pierre,RE,78.48,light rain,-21.3393,55.4781,Lindsey Hôtel
377,La Solana,ES,69.51,clear sky,38.9442,-3.2381,Apartamento Prado
379,Elizabeth City,US,71.65,clear sky,36.2946,-76.2511,Hampton Inn Elizabeth City
380,Mwene-Ditu,CD,84.25,overcast clouds,-7.0,23.45,Hôtel Kamas
381,Gairatganj,IN,69.93,clear sky,23.4202,78.2385,new garib namz road lines
382,Barcelona,ES,74.3,few clouds,41.3888,2.159,Axel Hotel Barcelona
383,Souillac,MU,76.35,clear sky,-20.5167,57.5167,Shanti Maurice Resort & Spa
384,Ucluelet,CA,50.31,light rain,48.9329,-125.5528,Black Rock Oceanfront Resort
386,Hirado,JP,62.47,clear sky,33.3597,129.5531,Samson Hotel
387,Pailon,BO,91.08,clear sky,-17.65,-62.75,Alojamiento pailon
388,Irbil,IQ,71.42,clear sky,36.1926,44.0106,Erbil International Hotel
389,Hershey,US,57.81,overcast clouds,40.2859,-76.6503,Days Inn by Wyndham Hershey
390,Kiama,AU,64.58,broken clouds,-34.6833,150.8667,The Sebel Kiama Harbourside
391,Kieta,PG,79.0,clear sky,-6.2167,155.6333,Uruna Bay Retreat
392,Tezu,IN,70.77,clear sky,27.9167,96.1667,Circuit House
393,Xuddur,SO,79.52,broken clouds,4.1213,43.8894,Banjanay Hotel
394,Bardiyah,LY,72.93,clear sky,31.7561,25.0865,بورتو بردية
395,Portland,US,53.15,mist,45.5234,-122.6762,Embassy Suites by Hilton Portland Downtown
396,Alta Floresta,BR,93.74,broken clouds,-9.8756,-56.0861,Floresta Amazonica Hotel
397,Byron Bay,AU,71.87,clear sky,-28.65,153.6167,Backpackers Inn on the Beach
398,Asau,RO,56.95,clear sky,46.4333,26.4,Casa Mika Ciobanus
399,Hennenman,ZA,81.72,clear sky,-27.9765,27.0242,Die ou Wingerdstok Hennenman
400,Sakakah,SA,80.33,clear sky,29.9697,40.2064,Fakhamat Al Orjoana Apartment
401,Nebbi,UG,75.49,light rain,2.4783,31.0889,Satellite One Hotel
402,Svoge,BG,64.26,overcast clouds,42.9667,23.35,Маймун Дере
403,Buritis,BR,94.93,few clouds,-15.6178,-46.4233,Hotel Rainha do Vale
404,Nyzhni Sirohozy,UA,54.21,overcast clouds,46.8484,34.3804,"КАФЕ & ГОСТИНИЦА ""Акуна Матата"""
405,Pacifica,US,57.52,mist,37.6138,-122.4869,"Pacifica Lighthouse, Trademark Collection by Wyndham"
406,Kalianget,ID,84.27,overcast clouds,-7.05,113.9333,Pesanggrahan Garam
407,Nurota,UZ,51.89,clear sky,40.5614,65.6886,Guest House Ruslan Nurata & Tours
408,Muros,ES,64.99,light rain,42.7762,-9.0603,Apartment Av. Castelao
409,Pafos,CY,73.31,few clouds,34.7667,32.4167,Elysium Hotel
410,Gubbio,IT,64.96,broken clouds,43.3545,12.5725,Park Hotel ai Cappuccini
411,Lodwar,KE,93.72,few clouds,3.1191,35.5973,Solmar Gracious Hotel
412,Meulaboh,ID,78.46,overcast clouds,4.1363,96.1285,Kost Pria
413,Cap Malheureux,MU,76.46,clear sky,-19.9842,57.6142,Pereybere Hotel & Spa
414,Nova Olinda Do Norte,BR,96.53,overcast clouds,-3.8881,-59.0942,Jardim Paiva Hotel
416,Garowe,SO,87.64,clear sky,8.4054,48.4845,Curubo Hotel
417,Mecca,SA,88.57,clear sky,21.4267,39.8261,"Makkah Clock Royal Tower, A Fairmont Hotel"
418,Todos Santos,MX,76.75,broken clouds,23.45,-110.2167,Hotel California Todos Santos
419,Namatanai,PG,79.36,scattered clouds,-3.6667,152.4333,Seagulls Inn Namatani
420,Maryville,US,62.19,few clouds,35.7565,-83.9705,"Holiday Inn Express & Suites Alcoa (Knoxville Airport), an IHG Hotel"
421,Matay,EG,80.26,clear sky,28.419,30.7792,Nag Aespen
422,Starkville,US,64.06,clear sky,33.4504,-88.8184,Hilton Garden Inn Starkville
423,Cookeville,US,59.92,clear sky,36.1628,-85.5016,La Quinta Inn & Suites by Wyndham Cookeville
424,Haapiti,PF,73.13,light rain,-17.5667,-149.8667,Linareva Moorea Beach Resort
425,Magdalena,PH,79.43,overcast clouds,14.1999,121.429,Samparada & Gestiada Residences
426,Rio Verde De Mato Grosso,BR,95.63,broken clouds,-18.9181,-54.8442,Hotel Valência
427,Kandi,BJ,90.41,overcast clouds,11.1342,2.9386,Baric Motel De Kandi
428,Lumphat,KH,70.39,overcast clouds,13.4878,106.9816,Lumphat Homestay
429,Arak,IR,57.34,clear sky,34.0917,49.6892,خانه سازمانهای غیر دولتی استان مرکزی
430,Karratha,AU,81.36,light rain,-20.7377,116.8463,ibis Styles Karratha
431,Yining,CN,56.66,light rain,29.0361,114.5636,Xiushui Hotel
432,Nuevo Progreso,MX,81.59,few clouds,23.1667,-97.95,Balneario Rio el Paraiso
433,Suphan Buri,TH,77.99,overcast clouds,14.4742,100.1222,Vasidtee City Hotel
434,Honiara,SB,76.55,few clouds,-9.4333,159.95,Heritage Park Hotel
435,Kamennomostskiy,RU,55.02,few clouds,44.2983,40.1856,Guest House Behind the river
436,Maua,BR,87.08,clear sky,-23.6678,-46.4614,Hotel Capriccio Mauá
437,Tutoia,BR,91.38,overcast clouds,-2.7619,-42.2744,Pousada Guará's
438,Kailua,US,76.98,few clouds,21.4022,-157.7394,Sheffield House Bed & Breakfast
439,Tripoli,LY,86.97,overcast clouds,32.8752,13.1875,Hotel Al-Safwa
441,Wanaka,NZ,56.1,overcast clouds,-44.7,169.15,Wanaka Homestead Lodge and Cottages
443,Hami,CN,52.27,overcast clouds,42.8,93.45,Laoyutang Resort
444,Camachile,PH,80.19,overcast clouds,14.6436,120.5808,Villa Catalina Resort
445,Dalbandin,PK,66.09,clear sky,28.8947,64.4101,Gidaan Guest House
446,Kota Bahru,MY,77.95,overcast clouds,6.1333,102.2386,Grand Riverview Hotel
447,Mayumba,GA,79.63,broken clouds,-3.432,10.6554,LIKWALE LODGE
448,Bom Jesus,BR,89.4,broken clouds,-9.0744,-44.3586,Hotel Brasão & Floricultura Bella Flor
449,Port-Gentil,GA,78.21,overcast clouds,-0.7193,8.7815,Fengshui Residence
450,Asfi,MA,72.59,clear sky,32.2994,-9.2372,Hôtel Abda
451,Belmonte,BR,79.3,light rain,-15.8631,-38.8828,Pousada Monte Carmelo O Pão
452,Santa Fe,AR,70.02,overcast clouds,-31.6333,-60.7,Conquistador Hotel
453,Nelson Bay,AU,68.0,broken clouds,-32.7167,152.15,Mantra Nelson Bay
454,Villa Carlos Paz,AR,65.05,overcast clouds,-31.4241,-64.4978,Monte Carlo
455,Batticaloa,LK,80.64,overcast clouds,7.7102,81.6924,Grand Star Guest House
456,Praia Da Vitoria,PT,73.76,clear sky,38.7333,-27.0667,Hotel Branco I
457,Camocim,BR,90.37,overcast clouds,-2.9022,-40.8411,Hotel Ilha do Amor
458,Mehriz,IR,63.1,clear sky,31.5917,54.4318,Mehrgard dwelling/سرای مهرگرد
459,Torrington,US,53.55,broken clouds,41.8007,-73.1212,The Yankee Pedlar Inn
460,Raton,US,61.05,clear sky,36.9034,-104.4391,"Holiday Inn Express & Suites Raton, an IHG Hotel"
461,Estelle,US,80.01,broken clouds,29.8458,-90.1067,Boomtown Casino & Hotel New Orleans
462,Viedma,AR,62.74,broken clouds,-40.8135,-62.9967,Hotel Cristal
463,Camacha,PT,71.53,few clouds,33.0833,-16.3333,Hotel Porto Santo & Spa
464,Los Llanos De Aridane,ES,69.55,broken clouds,28.6585,-17.9182,Valle Aridane
465,Zaraza,VE,90.57,scattered clouds,9.3503,-65.3245,Hotel Zaraza
466,Rancharia,BR,87.85,clear sky,-22.2292,-50.8931,Eros Motel
467,Ancud,CL,57.42,few clouds,-41.8697,-73.8203,Hotel Arena Gruesa
468,Sotouboua,TG,79.32,overcast clouds,8.5667,0.9833,Auberge Médina
469,Elmina,GH,81.1,light rain,5.0898,-1.348,Esteem Kofi and Adjoa Guesthouse
470,Longyan,CN,57.42,overcast clouds,25.1072,117.0225,Jinjiang Inn Longyan Zhongshan Road Pedestrian Street
471,Cravo Norte,CO,87.76,clear sky,6.3017,-70.2041,Hotel Potosí Los Mirtos
472,Mayo,US,63.55,overcast clouds,38.8876,-76.5119,Resorts Resource Group International
473,Luoyang,CN,54.63,overcast clouds,34.6836,112.4536,易家国际青年旅舍
474,Muroto,JP,60.89,clear sky,33.2833,134.15,Oota Ryokan
476,Yulara,AU,69.64,clear sky,-25.2406,130.9889,Desert Gardens Hotel - Ayers Rock Resort
477,Grand Gaube,MU,76.37,clear sky,-20.0064,57.6608,Veranda Paul et Virginie Hotel & Spa
478,Hualmay,PE,66.54,scattered clouds,-11.0964,-77.6139,Hotel Villa Kitzia Huacho
479,Tagusao,PH,76.87,overcast clouds,9.1924,117.8141,Toledo
480,Christchurch,NZ,54.0,broken clouds,-43.5333,172.6333,The George
481,Siwana,IN,79.27,clear sky,25.6333,72.4167,Krishna Tent House Siwana
482,Mut,TR,66.25,clear sky,36.6439,33.4389,Konak Otel
483,Mogwase,ZA,92.66,clear sky,-25.185,27.2665,De Skaap Accommodation & Event Venue
484,Kyenjojo,UG,68.02,light rain,0.6328,30.6214,Tropical Gardens
485,Saint-Georges,GD,85.68,scattered clouds,12.0564,-61.7485,Radisson Grenada Beach Resort
486,Port Lincoln,AU,53.98,clear sky,-34.7333,135.8667,Port Lincoln Hotel
